{
  "cities": [
    { "id": 1, "name": "New York", "country": "USA", "latitude": 40.7128, "longitude": -74.0060 },
    { "id": 2, "name": "Los Angeles", "country": "USA", "latitude": 34.0522, "longitude": -118.2437 },
    { "id": 3, "name": "Chicago", "country": "USA", "latitude": 41.8781, "longitude": -87.6298 },
    { "id": 4, "name": "Houston", "country": "USA", "latitude": 29.7604, "longitude": -95.3698 },
    { "id": 5, "name": "Miami", "country": "USA", "latitude": 25.7617, "longitude": -80.1918 }
  ],
  "distances": [
    { "from_city_id": 1, "to_city_id": 2, "distance_km": 3940 },
    { "from_city_id": 1, "to_city_id": 3, "distance_km": 1145 },
    { "from_city_id": 1, "to_city_id": 4, "distance_km": 2280 },
    { "from_city_id": 1, "to_city_id": 5, "distance_km": 1757 },
    { "from_city_id": 2, "to_city_id": 3, "distance_km": 2805 },
    { "from_city_id": 2, "to_city_id": 4, "distance_km": 2451 },
    { "from_city_id": 2, "to_city_id": 5, "distance_km": 3754 },
    { "from_city_id": 3, "to_city_id": 4, "distance_km": 1515 },
    { "from_city_id": 3, "to_city_id": 5, "distance_km": 1927 },
    { "from_city_id": 4, "to_city_id": 5, "distance_km": 1554 }
  ],
  "transportation": [
    { "from_city_id": 1, "to_city_id": 2, "mode": "flight", "duration_hours": 6 },
    { "from_city_id": 1, "to_city_id": 3, "mode": "train", "duration_hours": 19 },
    { "from_city_id": 1, "to_city_id": 4, "mode": "bus", "duration_hours": 36 },
    { "from_city_id": 1, "to_city_id": 5, "mode": "flight", "duration_hours": 3 },
    { "from_city_id": 2, "to_city_id": 3, "mode": "flight", "duration_hours": 4 },
    { "from_city_id": 2, "to_city_id": 4, "mode": "train", "duration_hours": 30 },
    { "from_city_id": 2, "to_city_id": 5, "mode": "flight", "duration_hours": 5 },
    { "from_city_id": 3, "to_city_id": 4, "mode": "bus", "duration_hours": 20 },
    { "from_city_id": 3, "to_city_id": 5, "mode": "flight", "duration_hours": 3 },
    { "from_city_id": 4, "to_city_id": 5, "mode": "train", "duration_hours": 18 }
  ],
  "weather": [
    { "city_id": 1, "date": "2025-03-14", "condition": "sunny", "temperature_c": 15 },
    { "city_id": 2, "date": "2025-03-14", "condition": "cloudy", "temperature_c": 20 },
    { "city_id": 3, "date": "2025-03-14", "condition": "rainy", "temperature_c": 10 },
    { "city_id": 4, "date": "2025-03-14", "condition": "sunny", "temperature_c": 25 },
    { "city_id": 5, "date": "2025-03-14", "condition": "stormy", "temperature_c": 28 }
  ]
}